{
  "type": "FeatureCollection",
  "features": [
    {
      "type": "Feature",
      "properties": {
        "bridge_id": 1000004,
        "bridge_name": "bridge at id 1000004",
        "condition": "A",
        "road": "N1"
      },
      "geometry": {
        "type": "Point",
        "coordinates": [
          90.4588610799999,
          23.69873866
        ]
      }
    },
    {
      "type": "Feature",
      "properties": {
        "bridge_id": 1000010,
        "bridge_name": "bridge at id 1000010",
        "condition": "A",
        "road": "N1"
      },
      "geometry": {
        "type": "Point",
        "coordinates": [
          90.4877749181818,
          23.6946638363636
        ]
      }
    },
    {
      "type": "Feature",
      "properties": {
        "bridge_id": 1000017,
        "bridge_name": "KANCHPUR PC GIRDER BRIDGE",
        "condition": "C",
        "road": "N1"
      },
      "geometry": {
        "type": "Point",
        "coordinates": [
          90.5188327,
          23.7045833
        ]
      }
    },
    {
      "type": "Feature",
      "properties": {
        "bridge_id": 1000021,
        "bridge_name": "KATCHPUR BOX CULVERT",
        "condition": "B",
        "road": "N1"
      },
      "geometry": {
        "type": "Point",
        "coordinates": [
          90.5281938,
          23.7015278
        ]
      }
    },
    {
      "type": "Feature",
      "properties": {
        "bridge_id": 1000022,
        "bridge_name": "NOYAPARA CULVERT",
        "condition": "A",
        "road": "N1"
      },
      "geometry": {
        "type": "Point",
        "coordinates": [
          90.5307216,
          23.6998608
        ]
      }
    },
    {
      "type": "Feature",
      "properties": {
        "bridge_id": 1000023,
        "bridge_name": "ADUPUR CULVERT",
        "condition": "A",
        "road": "N1"
      },
      "geometry": {
        "type": "Point",
        "coordinates": [
          90.5337774,
          23.6974163
        ]
      }
    },
    {
      "type": "Feature",
      "properties": {
        "bridge_id": 1000025,
        "bridge_name": "NAYABARI KASPUR BOX CULVERT",
        "condition": "A",
        "road": "N1"
      },
      "geometry": {
        "type": "Point",
        "coordinates": [
          90.5376108,
          23.6943608
        ]
      }
    },
    {
      "type": "Feature",
      "properties": {
        "bridge_id": 1000028,
        "bridge_name": "KHAS PARA BOX CULVERT",
        "condition": "A",
        "road": "N1"
      },
      "geometry": {
        "type": "Point",
        "coordinates": [
          90.5448886,
          23.6911108
        ]
      }
    },
    {
      "type": "Feature",
      "properties": {
        "bridge_id": 1000029,
        "bridge_name": "DAWAN BAG BOX CULVERT",
        "condition": "A",
        "road": "N1"
      },
      "geometry": {
        "type": "Point",
        "coordinates": [
          90.5451386,
          23.6910552
        ]
      }
    },
    {
      "type": "Feature",
      "properties": {
        "bridge_id": 1000030,
        "bridge_name": "NAYABARI BOX CULVERT",
        "condition": "B",
        "road": "N1"
      },
      "geometry": {
        "type": "Point",
        "coordinates": [
          90.5454624957575,
          23.6909119315151
        ]
      }
    },
    {
      "type": "Feature",
      "properties": {
        "bridge_id": 1000033,
        "bridge_name": "MADAN PUR (R)",
        "condition": "A",
        "road": "N1"
      },
      "geometry": {
        "type": "Point",
        "coordinates": [
          90.5512778,
          23.6854997
        ]
      }
    },
    {
      "type": "Feature",
      "properties": {
        "bridge_id": 1000034,
        "bridge_name": "Madanpur Bridge(R)",
        "condition": "A",
        "road": "N1"
      },
      "geometry": {
        "type": "Point",
        "coordinates": [
          90.5513591765258,
          23.6853619779342
        ]
      }
    },
    {
      "type": "Feature",
      "properties": {
        "bridge_id": 1000036,
        "bridge_name": "KAWTALA BOX CULVERT",
        "condition": "A",
        "road": "N1"
      },
      "geometry": {
        "type": "Point",
        "coordinates": [
          90.5558194349999,
          23.6778035
        ]
      }
    },
    {
      "type": "Feature",
      "properties": {
        "bridge_id": 1000040,
        "bridge_name": "MALIBAG BOX CULVERT",
        "condition": "B",
        "road": "N1"
      },
      "geometry": {
        "type": "Point",
        "coordinates": [
          90.5671104,
          23.6604167
        ]
      }
    },
    {
      "type": "Feature",
      "properties": {
        "bridge_id": 1000045,
        "bridge_name": "LANGOLBANDO PC GIDER BRIDGE",
        "condition": "B",
        "road": "N1"
      },
      "geometry": {
        "type": "Point",
        "coordinates": [
          90.5745271,
          23.6559167
        ]
      }
    },
    {
      "type": "Feature",
      "properties": {
        "bridge_id": 1000049,
        "bridge_name": "DARIKANDI BRIDGE (R)",
        "condition": "B",
        "road": "N1"
      },
      "geometry": {
        "type": "Point",
        "coordinates": [
          90.5826382,
          23.6508889
        ]
      }
    },
    {
      "type": "Feature",
      "properties": {
        "bridge_id": 1000050,
        "bridge_name": "Darikandi Bridge (R)",
        "condition": "A",
        "road": "N1"
      },
      "geometry": {
        "type": "Point",
        "coordinates": [
          90.5829993,
          23.6506944
        ]
      }
    },
    {
      "type": "Feature",
      "properties": {
        "bridge_id": 1000051,
        "bridge_name": "SONARKALI BRIDGE(R)",
        "condition": "B",
        "road": "N1"
      },
      "geometry": {
        "type": "Point",
        "coordinates": [
          90.5845490085483,
          23.6497543993548
        ]
      }
    },
    {
      "type": "Feature",
      "properties": {
        "bridge_id": 1000053,
        "bridge_name": "MOLLIK PARA BRIDGE (R)",
        "condition": "C",
        "road": "N1"
      },
      "geometry": {
        "type": "Point",
        "coordinates": [
          90.5899163,
          23.6449441
        ]
      }
    },
    {
      "type": "Feature",
      "properties": {
        "bridge_id": 1000056,
        "bridge_name": "KRIBORDI BOX CULVERT",
        "condition": "A",
        "road": "N1"
      },
      "geometry": {
        "type": "Point",
        "coordinates": [
          90.5948052,
          23.6358608
        ]
      }
    },
    {
      "type": "Feature",
      "properties": {
        "bridge_id": 1000057,
        "bridge_name": "SHADIPUR BOX CULVERT",
        "condition": "B",
        "road": "N1"
      },
      "geometry": {
        "type": "Point",
        "coordinates": [
          90.5970274,
          23.6341108
        ]
      }
    },
    {
      "type": "Feature",
      "properties": {
        "bridge_id": 1000060,
        "bridge_name": "MARIKHALL BRIDGE",
        "condition": "A",
        "road": "N1"
      },
      "geometry": {
        "type": "Point",
        "coordinates": [
          90.6023015723077,
          23.6284668507692
        ]
      }
    },
    {
      "type": "Feature",
      "properties": {
        "bridge_id": 1000063,
        "bridge_name": "SANGAKADI CULVERT",
        "condition": "B",
        "road": "N1"
      },
      "geometry": {
        "type": "Point",
        "coordinates": [
          90.6055278,
          23.6242216
        ]
      }
    },
    {
      "type": "Feature",
      "properties": {
        "bridge_id": 1000068,
        "bridge_name": "ASHIR CHAR (R)",
        "condition": "B",
        "road": "N1"
      },
      "geometry": {
        "type": "Point",
        "coordinates": [
          90.6109029561497,
          23.613587384385
        ]
      }
    },
    {
      "type": "Feature",
      "properties": {
        "bridge_id": 1000069,
        "bridge_name": "ASHIR CHAR (Right)",
        "condition": "A",
        "road": "N1"
      },
      "geometry": {
        "type": "Point",
        "coordinates": [
          90.6121944,
          23.6095556
        ]
      }
    },
    {
      "type": "Feature",
      "properties": {
        "bridge_id": 1000071,
        "bridge_name": "MEGHNA BRIDGE",
        "condition": "C",
        "road": "N1"
      },
      "geometry": {
        "type": "Point",
        "coordinates": [
          90.6159722,
          23.6018611
        ]
      }
    },
    {
      "type": "Feature",
      "properties": {
        "bridge_id": 1000074,
        "bridge_name": "TATULTALA CULVERT",
        "condition": "A",
        "road": "N1"
      },
      "geometry": {
        "type": "Point",
        "coordinates": [
          90.6246938,
          23.5959441
        ]
      }
    },
    {
      "type": "Feature",
      "properties": {
        "bridge_id": 1000075,
        "bridge_name": "BAILAKANDI CULVERT",
        "condition": "A",
        "road": "N1"
      },
      "geometry": {
        "type": "Point",
        "coordinates": [
          90.6293327,
          23.5917497
        ]
      }
    },
    {
      "type": "Feature",
      "properties": {
        "bridge_id": 1000077,
        "bridge_name": "MALUAKANDI CULVEDRT",
        "condition": "A",
        "road": "N1"
      },
      "geometry": {
        "type": "Point",
        "coordinates": [
          90.6369441,
          23.5837497
        ]
      }
    },
    {
      "type": "Feature",
      "properties": {
        "bridge_id": 1000079,
        "bridge_name": "BHATIR CHAR BRIDGE",
        "condition": "A",
        "road": "N1"
      },
      "geometry": {
        "type": "Point",
        "coordinates": [
          90.6381386,
          23.5825827
        ]
      }
    },
    {
      "type": "Feature",
      "properties": {
        "bridge_id": 1000083,
        "bridge_name": "ANARPUR BRIDGE(R)",
        "condition": "A",
        "road": "N1"
      },
      "geometry": {
        "type": "Point",
        "coordinates": [
          90.6451108,
          23.572166
        ]
      }
    },
    {
      "type": "Feature",
      "properties": {
        "bridge_id": 1000086,
        "bridge_name": "VITIKANDA - ANAR PUR CULVERT",
        "condition": "A",
        "road": "N1"
      },
      "geometry": {
        "type": "Point",
        "coordinates": [
          90.6501944,
          23.5639167
        ]
      }
    },
    {
      "type": "Feature",
      "properties": {
        "bridge_id": 1000091,
        "bridge_name": "ALI PURA P.C BRIDGE (RIGHT)",
        "condition": "A",
        "road": "N1"
      },
      "geometry": {
        "type": "Point",
        "coordinates": [
          90.6559444,
          23.5590278
        ]
      }
    },
    {
      "type": "Feature",
      "properties": {
        "bridge_id": 1000095,
        "bridge_name": "VOBAR CHAR BRIDGE(R)",
        "condition": "A",
        "road": "N1"
      },
      "geometry": {
        "type": "Point",
        "coordinates": [
          90.6636667,
          23.5523333
        ]
      }
    },
    {
      "type": "Feature",
      "properties": {
        "bridge_id": 1000096,
        "bridge_name": "BOBAIRCHAR BRIDGE(R)",
        "condition": "A",
        "road": "N1"
      },
      "geometry": {
        "type": "Point",
        "coordinates": [
          90.6643538752577,
          23.5517421907216
        ]
      }
    },
    {
      "type": "Feature",
      "properties": {
        "bridge_id": 1000098,
        "bridge_name": "PURRANBUICHE BOX CULVERT",
        "condition": "A",
        "road": "N1"
      },
      "geometry": {
        "type": "Point",
        "coordinates": [
          90.6694438,
          23.5474163
        ]
      }
    },
    {
      "type": "Feature",
      "properties": {
        "bridge_id": 1000099,
        "bridge_name": "NOYAPARA",
        "condition": "A",
        "road": "N1"
      },
      "geometry": {
        "type": "Point",
        "coordinates": [
          90.6699993,
          23.5469441
        ]
      }
    },
    {
      "type": "Feature",
      "properties": {
        "bridge_id": 1000101,
        "bridge_name": "MADHAYA BAUSHIA BRIDGE(R)",
        "condition": "A",
        "road": "N1"
      },
      "geometry": {
        "type": "Point",
        "coordinates": [
          90.6748292125,
          23.54268543125
        ]
      }
    },
    {
      "type": "Feature",
      "properties": {
        "bridge_id": 1000103,
        "bridge_name": "BOCTAR KANDI BOX CULVERT",
        "condition": "C",
        "road": "N1"
      },
      "geometry": {
        "type": "Point",
        "coordinates": [
          90.6784577888,
          23.5393910168
        ]
      }
    },
    {
      "type": "Feature",
      "properties": {
        "bridge_id": 1000105,
        "bridge_name": "bridge at id 1000105",
        "condition": "A",
        "road": "N1"
      },
      "geometry": {
        "type": "Point",
        "coordinates": [
          90.6821382,
          23.536083
        ]
      }
    },
    {
      "type": "Feature",
      "properties": {
        "bridge_id": 1000109,
        "bridge_name": "CHAR BOUSHEA (2)",
        "condition": "A",
        "road": "N1"
      },
      "geometry": {
        "type": "Point",
        "coordinates": [
          90.6897951837349,
          23.5301519626506
        ]
      }
    },
    {
      "type": "Feature",
      "properties": {
        "bridge_id": 1000110,
        "bridge_name": "CHAR BOWSHIA BRIDGE(R)",
        "condition": "B",
        "road": "N1"
      },
      "geometry": {
        "type": "Point",
        "coordinates": [
          90.6952219,
          23.529916
        ]
      }
    },
    {
      "type": "Feature",
      "properties": {
        "bridge_id": 1000112,
        "bridge_name": "Daud Kandi Bridge",
        "condition": "C",
        "road": "N1"
      },
      "geometry": {
        "type": "Point",
        "coordinates": [
          90.7024402743,
          23.5303844733
        ]
      }
    },
    {
      "type": "Feature",
      "properties": {
        "bridge_id": 1000121,
        "bridge_name": "BALDHA KHAL RCC GIDER BRIDGE",
        "condition": "C",
        "road": "N1"
      },
      "geometry": {
        "type": "Point",
        "coordinates": [
          90.7242807234,
          23.5324186
        ]
      }
    },
    {
      "type": "Feature",
      "properties": {
        "bridge_id": 1000123,
        "bridge_name": "MAIS PARA BOX CULVERT",
        "condition": "B",
        "road": "N1"
      },
      "geometry": {
        "type": "Point",
        "coordinates": [
          90.7291780095,
          23.5317587831999
        ]
      }
    },
    {
      "type": "Feature",
      "properties": {
        "bridge_id": 1000129,
        "bridge_name": "SHAHID NAGIR",
        "condition": "C",
        "road": "N1"
      },
      "geometry": {
        "type": "Point",
        "coordinates": [
          90.75825325,
          23.5298050611
        ]
      }
    },
    {
      "type": "Feature",
      "properties": {
        "bridge_id": 1000134,
        "bridge_name": "SARKAR BARI CULVERT",
        "condition": "C",
        "road": "N1"
      },
      "geometry": {
        "type": "Point",
        "coordinates": [
          90.7816104,
          23.5307493
        ]
      }
    },
    {
      "type": "Feature",
      "properties": {
        "bridge_id": 1000138,
        "bridge_name": "AMIRABATH SLAB CULVERT",
        "condition": "C",
        "road": "N1"
      },
      "geometry": {
        "type": "Point",
        "coordinates": [
          90.7924441,
          23.5306938
        ]
      }
    },
    {
      "type": "Feature",
      "properties": {
        "bridge_id": 1000143,
        "bridge_name": "Ginlatoly",
        "condition": "C",
        "road": "N1"
      },
      "geometry": {
        "type": "Point",
        "coordinates": [
          90.8110155135,
          23.5318234765
        ]
      }
    },
    {
      "type": "Feature",
      "properties": {
        "bridge_id": 1000148,
        "bridge_name": "RAIPUR BOX CULVERT",
        "condition": "A",
        "road": "N1"
      },
      "geometry": {
        "type": "Point",
        "coordinates": [
          90.8309774761999,
          23.5329743291
        ]
      }
    },
    {
      "type": "Feature",
      "properties": {
        "bridge_id": 1000152,
        "bridge_name": "AITAL BANGA BOX CULVERT",
        "condition": "C",
        "road": "N1"
      },
      "geometry": {
        "type": "Point",
        "coordinates": [
          90.8442186132,
          23.5229166652
        ]
      }
    },
    {
      "type": "Feature",
      "properties": {
        "bridge_id": 1000156,
        "bridge_name": "ILLIOT BAZER",
        "condition": "B",
        "road": "N1"
      },
      "geometry": {
        "type": "Point",
        "coordinates": [
          90.8703049,
          23.5133056
        ]
      }
    },
    {
      "type": "Feature",
      "properties": {
        "bridge_id": 1000163,
        "bridge_name": "KHAT GHOR BOX CULVERT",
        "condition": "B",
        "road": "N1"
      },
      "geometry": {
        "type": "Point",
        "coordinates": [
          90.9021745389,
          23.5060024341
        ]
      }
    },
    {
      "type": "Feature",
      "properties": {
        "bridge_id": 1000167,
        "bridge_name": "BAKRA BOX CULVERT",
        "condition": "B",
        "road": "N1"
      },
      "geometry": {
        "type": "Point",
        "coordinates": [
          90.9214660218,
          23.5056131416
        ]
      }
    },
    {
      "type": "Feature",
      "properties": {
        "bridge_id": 1000173,
        "bridge_name": "MATIA BAZER",
        "condition": "B",
        "road": "N1"
      },
      "geometry": {
        "type": "Point",
        "coordinates": [
          90.9432418928,
          23.5024077848
        ]
      }
    },
    {
      "type": "Feature",
      "properties": {
        "bridge_id": 1000175,
        "bridge_name": "SONAPUR BOX CULVERT",
        "condition": "A",
        "road": "N1"
      },
      "geometry": {
        "type": "Point",
        "coordinates": [
          90.9473844088999,
          23.5013551924
        ]
      }
    },
    {
      "type": "Feature",
      "properties": {
        "bridge_id": 1000180,
        "bridge_name": "KARON KHAL SLAB CULVERT",
        "condition": "B",
        "road": "N1"
      },
      "geometry": {
        "type": "Point",
        "coordinates": [
          90.9715772516,
          23.495896314
        ]
      }
    },
    {
      "type": "Feature",
      "properties": {
        "bridge_id": 1000182,
        "bridge_name": "MILL GHAT BOX CULVERT",
        "condition": "A",
        "road": "N1"
      },
      "geometry": {
        "type": "Point",
        "coordinates": [
          90.9829993,
          23.4951386
        ]
      }
    },
    {
      "type": "Feature",
      "properties": {
        "bridge_id": 1000189,
        "bridge_name": "CHANDINA- SHAHA PARA RCC GIDER GRIDGE",
        "condition": "C",
        "road": "N1"
      },
      "geometry": {
        "type": "Point",
        "coordinates": [
          91.0120278,
          23.4890552
        ]
      }
    },
    {
      "type": "Feature",
      "properties": {
        "bridge_id": 1000194,
        "bridge_name": "CORI PAI BOX CULVERT",
        "condition": "B",
        "road": "N1"
      },
      "geometry": {
        "type": "Point",
        "coordinates": [
          91.0404441,
          23.481166
        ]
      }
    },
    {
      "type": "Feature",
      "properties": {
        "bridge_id": 1000196,
        "bridge_name": "COREPAI BOX CULVERT",
        "condition": "B",
        "road": "N1"
      },
      "geometry": {
        "type": "Point",
        "coordinates": [
          91.0504167,
          23.4820827
        ]
      }
    },
    {
      "type": "Feature",
      "properties": {
        "bridge_id": 1000198,
        "bridge_name": "NIMSHAR SLAB CULVERT",
        "condition": "A",
        "road": "N1"
      },
      "geometry": {
        "type": "Point",
        "coordinates": [
          91.0590278,
          23.4815271
        ]
      }
    },
    {
      "type": "Feature",
      "properties": {
        "bridge_id": 1000201,
        "bridge_name": "KABILA DUBARCHAR SLAB CULVERT",
        "condition": "C",
        "road": "N1"
      },
      "geometry": {
        "type": "Point",
        "coordinates": [
          91.0789993,
          23.4770827
        ]
      }
    },
    {
      "type": "Feature",
      "properties": {
        "bridge_id": 1000207,
        "bridge_name": "NAZIRA BOX CULVERT",
        "condition": "B",
        "road": "N1"
      },
      "geometry": {
        "type": "Point",
        "coordinates": [
          91.1070332074074,
          23.4781159049382
        ]
      }
    },
    {
      "type": "Feature",
      "properties": {
        "bridge_id": 1000213,
        "bridge_name": "AMTOLI SLAB CULVERT",
        "condition": "A",
        "road": "N1"
      },
      "geometry": {
        "type": "Point",
        "coordinates": [
          91.129047144,
          23.479544924
        ]
      }
    },
    {
      "type": "Feature",
      "properties": {
        "bridge_id": 1000217,
        "bridge_name": "DHANPUR RCC GIDER BRIDGE",
        "condition": "A",
        "road": "N1"
      },
      "geometry": {
        "type": "Point",
        "coordinates": [
          91.142333,
          23.459
        ]
      }
    },
    {
      "type": "Feature",
      "properties": {
        "bridge_id": 1000229,
        "bridge_name": "PADUAR BAZER RCCGIDER",
        "condition": "B",
        "road": "N1"
      },
      "geometry": {
        "type": "Point",
        "coordinates": [
          91.1678943372365,
          23.4212487704918
        ]
      }
    },
    {
      "type": "Feature",
      "properties": {
        "bridge_id": 1000231,
        "bridge_name": "Mostapur Bridge",
        "condition": "C",
        "road": "N1"
      },
      "geometry": {
        "type": "Point",
        "coordinates": [
          91.1721938,
          23.4191382
        ]
      }
    },
    {
      "type": "Feature",
      "properties": {
        "bridge_id": 1000238,
        "bridge_name": "RAZAPARA RCC GIDER BRIDGE",
        "condition": "A",
        "road": "N1"
      },
      "geometry": {
        "type": "Point",
        "coordinates": [
          91.2090833,
          23.4100278
        ]
      }
    },
    {
      "type": "Feature",
      "properties": {
        "bridge_id": 1000244,
        "bridge_name": "SUAGAZI RCC GIDER BRIDGE",
        "condition": "A",
        "road": "N1"
      },
      "geometry": {
        "type": "Point",
        "coordinates": [
          91.2293049,
          23.3914441
        ]
      }
    },
    {
      "type": "Feature",
      "properties": {
        "bridge_id": 1000252,
        "bridge_name": "LAL BAG RCC GIDER BRIDGE",
        "condition": "C",
        "road": "N1"
      },
      "geometry": {
        "type": "Point",
        "coordinates": [
          91.2471108,
          23.3683327
        ]
      }
    },
    {
      "type": "Feature",
      "properties": {
        "bridge_id": 1000254,
        "bridge_name": "CHANSIRI BOXCUIVERT",
        "condition": "A",
        "road": "N1"
      },
      "geometry": {
        "type": "Point",
        "coordinates": [
          91.25325,
          23.3586389
        ]
      }
    },
    {
      "type": "Feature",
      "properties": {
        "bridge_id": 1000264,
        "bridge_name": "MIABAZAR BOX CULVERT",
        "condition": "A",
        "road": "N1"
      },
      "geometry": {
        "type": "Point",
        "coordinates": [
          91.2748792824,
          23.3301462324
        ]
      }
    },
    {
      "type": "Feature",
      "properties": {
        "bridge_id": 1000266,
        "bridge_name": "DOLL BARI CULVERT",
        "condition": "B",
        "road": "N1"
      },
      "geometry": {
        "type": "Point",
        "coordinates": [
          91.2791104,
          23.324166
        ]
      }
    },
    {
      "type": "Feature",
      "properties": {
        "bridge_id": 1000268,
        "bridge_name": "NOYA BAZER BOX CULVERT",
        "condition": "A",
        "road": "N1"
      },
      "geometry": {
        "type": "Point",
        "coordinates": [
          91.2830867321701,
          23.3180696869138
        ]
      }
    },
    {
      "type": "Feature",
      "properties": {
        "bridge_id": 1000270,
        "bridge_name": "LALGORE BEZER CULVERT",
        "condition": "A",
        "road": "N1"
      },
      "geometry": {
        "type": "Point",
        "coordinates": [
          91.2844719,
          23.3149444
        ]
      }
    },
    {
      "type": "Feature",
      "properties": {
        "bridge_id": 1000274,
        "bridge_name": "SUPUYA BOX CULVERT",
        "condition": "A",
        "road": "N1"
      },
      "geometry": {
        "type": "Point",
        "coordinates": [
          91.288583,
          23.30425
        ]
      }
    },
    {
      "type": "Feature",
      "properties": {
        "bridge_id": 1000275,
        "bridge_name": "DHARMA PUR SLAB CULVERT",
        "condition": "B",
        "road": "N1"
      },
      "geometry": {
        "type": "Point",
        "coordinates": [
          91.2889770397351,
          23.3034306450331
        ]
      }
    },
    {
      "type": "Feature",
      "properties": {
        "bridge_id": 1000277,
        "bridge_name": "BOWCHI BAZAR CULVERT",
        "condition": "B",
        "road": "N1"
      },
      "geometry": {
        "type": "Point",
        "coordinates": [
          91.2914997,
          23.296083
        ]
      }
    },
    {
      "type": "Feature",
      "properties": {
        "bridge_id": 1000280,
        "bridge_name": "AMAN GONG SLAB CULVERT",
        "condition": "B",
        "road": "N1"
      },
      "geometry": {
        "type": "Point",
        "coordinates": [
          91.2936386,
          23.2876663
        ]
      }
    },
    {
      "type": "Feature",
      "properties": {
        "bridge_id": 1000285,
        "bridge_name": "HARISHARDE CULVERT",
        "condition": "B",
        "road": "N1"
      },
      "geometry": {
        "type": "Point",
        "coordinates": [
          91.3054722,
          23.2677493
        ]
      }
    },
    {
      "type": "Feature",
      "properties": {
        "bridge_id": 1000288,
        "bridge_name": "RANGAMATIA (1) BOX CULVERT",
        "condition": "B",
        "road": "N1"
      },
      "geometry": {
        "type": "Point",
        "coordinates": [
          91.3070217386138,
          23.2618360940594
        ]
      }
    },
    {
      "type": "Feature",
      "properties": {
        "bridge_id": 1000290,
        "bridge_name": "RANGOWATIA 2 CULVERT",
        "condition": "B",
        "road": "N1"
      },
      "geometry": {
        "type": "Point",
        "coordinates": [
          91.3073611,
          23.25941665
        ]
      }
    },
    {
      "type": "Feature",
      "properties": {
        "bridge_id": 1000291,
        "bridge_name": "SONAGATI BOX CULVERT",
        "condition": "B",
        "road": "N1"
      },
      "geometry": {
        "type": "Point",
        "coordinates": [
          91.3074444,
          23.2587222
        ]
      }
    },
    {
      "type": "Feature",
      "properties": {
        "bridge_id": 1000292,
        "bridge_name": "NOWA PARA BOX CULVERT",
        "condition": "B",
        "road": "N1"
      },
      "geometry": {
        "type": "Point",
        "coordinates": [
          91.3076156494075,
          23.2576429774881
        ]
      }
    },
    {
      "type": "Feature",
      "properties": {
        "bridge_id": 1000294,
        "bridge_name": "KALIR BAZAR BOX CULVERT",
        "condition": "A",
        "road": "N1"
      },
      "geometry": {
        "type": "Point",
        "coordinates": [
          91.3091944,
          23.249833
        ]
      }
    },
    {
      "type": "Feature",
      "properties": {
        "bridge_id": 1000295,
        "bridge_name": "KALIA BAZER BOC CULVERT",
        "condition": "B",
        "road": "N1"
      },
      "geometry": {
        "type": "Point",
        "coordinates": [
          91.3098056,
          23.248333
        ]
      }
    },
    {
      "type": "Feature",
      "properties": {
        "bridge_id": 1000299,
        "bridge_name": "BALUJURI BOX CULVERT",
        "condition": "B",
        "road": "N1"
      },
      "geometry": {
        "type": "Point",
        "coordinates": [
          91.3119739539877,
          23.2429040619631
        ]
      }
    },
    {
      "type": "Feature",
      "properties": {
        "bridge_id": 1000300,
        "bridge_name": "CHAUDDAGARAM BOX CULVERT",
        "condition": "B",
        "road": "N1"
      },
      "geometry": {
        "type": "Point",
        "coordinates": [
          91.3123611,
          23.2416941
        ]
      }
    },
    {
      "type": "Feature",
      "properties": {
        "bridge_id": 1000301,
        "bridge_name": "BALUZURI 2 CULVERT",
        "condition": "A",
        "road": "N1"
      },
      "geometry": {
        "type": "Point",
        "coordinates": [
          91.3125740860465,
          23.2397920309669
        ]
      }
    },
    {
      "type": "Feature",
      "properties": {
        "bridge_id": 1000302,
        "bridge_name": "CHADDAGRAM BAZAR BOX CULVERT",
        "condition": "A",
        "road": "N1"
      },
      "geometry": {
        "type": "Point",
        "coordinates": [
          91.3131667,
          23.2344997
        ]
      }
    },
    {
      "type": "Feature",
      "properties": {
        "bridge_id": 1000305,
        "bridge_name": "HAYDAR POLE BOX CULVERT",
        "condition": "B",
        "road": "N1"
      },
      "geometry": {
        "type": "Point",
        "coordinates": [
          91.3135278,
          23.2275549
        ]
      }
    },
    {
      "type": "Feature",
      "properties": {
        "bridge_id": 1000307,
        "bridge_name": "FALGUNCORA CULVERT",
        "condition": "A",
        "road": "N1"
      },
      "geometry": {
        "type": "Point",
        "coordinates": [
          91.3137222,
          23.221416
        ]
      }
    },
    {
      "type": "Feature",
      "properties": {
        "bridge_id": 1000310,
        "bridge_name": "ATTOCK GRAM BOX CULVERT",
        "condition": "A",
        "road": "N1"
      },
      "geometry": {
        "type": "Point",
        "coordinates": [
          91.3157222,
          23.2103056
        ]
      }
    },
    {
      "type": "Feature",
      "properties": {
        "bridge_id": 1000312,
        "bridge_name": "BOSONTA PUR BOX CULVERT",
        "condition": "C",
        "road": "N1"
      },
      "geometry": {
        "type": "Point",
        "coordinates": [
          91.3168049,
          23.201
        ]
      }
    },
    {
      "type": "Feature",
      "properties": {
        "bridge_id": 1000314,
        "bridge_name": "BASHONTA PUR (2)",
        "condition": "B",
        "road": "N1"
      },
      "geometry": {
        "type": "Point",
        "coordinates": [
          91.3185549,
          23.1921108
        ]
      }
    },
    {
      "type": "Feature",
      "properties": {
        "bridge_id": 1000316,
        "bridge_name": "NANKORA BOX CULVERT",
        "condition": "B",
        "road": "N1"
      },
      "geometry": {
        "type": "Point",
        "coordinates": [
          91.3212493,
          23.1866941
        ]
      }
    },
    {
      "type": "Feature",
      "properties": {
        "bridge_id": 1000319,
        "bridge_name": "ANDAJER BAZER BOX CULVERT",
        "condition": "A",
        "road": "N1"
      },
      "geometry": {
        "type": "Point",
        "coordinates": [
          91.3198049,
          23.1773604
        ]
      }
    },
    {
      "type": "Feature",
      "properties": {
        "bridge_id": 1000321,
        "bridge_name": "DIMATOLI (1) BOX CULVERT",
        "condition": "B",
        "road": "N1"
      },
      "geometry": {
        "type": "Point",
        "coordinates": [
          91.3213604,
          23.1681382
        ]
      }
    },
    {
      "type": "Feature",
      "properties": {
        "bridge_id": 1000324,
        "bridge_name": "DIMATOLY (2) BOX CULVERT",
        "condition": "B",
        "road": "N1"
      },
      "geometry": {
        "type": "Point",
        "coordinates": [
          91.3224993,
          23.1571667
        ]
      }
    },
    {
      "type": "Feature",
      "properties": {
        "bridge_id": 1000326,
        "bridge_name": "JAGARNATHPUR BOX CULVERT",
        "condition": "B",
        "road": "N1"
      },
      "geometry": {
        "type": "Point",
        "coordinates": [
          91.3254993,
          23.1496941
        ]
      }
    },
    {
      "type": "Feature",
      "properties": {
        "bridge_id": 1000329,
        "bridge_name": "JAGOT PUR BOX CULVERT",
        "condition": "B",
        "road": "N1"
      },
      "geometry": {
        "type": "Point",
        "coordinates": [
          91.326666,
          23.1433886
        ]
      }
    },
    {
      "type": "Feature",
      "properties": {
        "bridge_id": 1000331,
        "bridge_name": "FOKIR BAZAR SLAB CULVERT",
        "condition": "B",
        "road": "N1"
      },
      "geometry": {
        "type": "Point",
        "coordinates": [
          91.3264716,
          23.1374163
        ]
      }
    },
    {
      "type": "Feature",
      "properties": {
        "bridge_id": 1000333,
        "bridge_name": "KAKKARA CULVERT",
        "condition": "B",
        "road": "N1"
      },
      "geometry": {
        "type": "Point",
        "coordinates": [
          91.3287216,
          23.1290827
        ]
      }
    },
    {
      "type": "Feature",
      "properties": {
        "bridge_id": 1000334,
        "bridge_name": "HASO BOTHACH BOX CULVERT",
        "condition": "A",
        "road": "N1"
      },
      "geometry": {
        "type": "Point",
        "coordinates": [
          91.3303863688888,
          23.1252363577777
        ]
      }
    },
    {
      "type": "Feature",
      "properties": {
        "bridge_id": 1000337,
        "bridge_name": "Chanara Box Culvert",
        "condition": "A",
        "road": "N1"
      },
      "geometry": {
        "type": "Point",
        "coordinates": [
          91.3329993,
          23.1193049
        ]
      }
    },
    {
      "type": "Feature",
      "properties": {
        "bridge_id": 1000340,
        "bridge_name": "PODOYA BOX CULVERT",
        "condition": "A",
        "road": "N1"
      },
      "geometry": {
        "type": "Point",
        "coordinates": [
          91.3381386,
          23.1108056
        ]
      }
    },
    {
      "type": "Feature",
      "properties": {
        "bridge_id": 1000343,
        "bridge_name": "CHANGARPULL(II) BOX CULVERT",
        "condition": "B",
        "road": "N1"
      },
      "geometry": {
        "type": "Point",
        "coordinates": [
          91.343162998913,
          23.1017563206521
        ]
      }
    },
    {
      "type": "Feature",
      "properties": {
        "bridge_id": 1000344,
        "bridge_name": "UTTOR KAIEATI CULVERT",
        "condition": "A",
        "road": "N1"
      },
      "geometry": {
        "type": "Point",
        "coordinates": [
          91.3437774,
          23.1005833
        ]
      }
    },
    {
      "type": "Feature",
      "properties": {
        "bridge_id": 1000345,
        "bridge_name": "ADONCORA",
        "condition": "B",
        "road": "N1"
      },
      "geometry": {
        "type": "Point",
        "coordinates": [
          91.3454956309091,
          23.0973512527272
        ]
      }
    },
    {
      "type": "Feature",
      "properties": {
        "bridge_id": 1000346,
        "bridge_name": "KOKALI BOX CULVERT",
        "condition": "B",
        "road": "N1"
      },
      "geometry": {
        "type": "Point",
        "coordinates": [
          91.3461108,
          23.0961941
        ]
      }
    },
    {
      "type": "Feature",
      "properties": {
        "bridge_id": 1000348,
        "bridge_name": "DUTHOSHA BOX CULVERT",
        "condition": "B",
        "road": "N1"
      },
      "geometry": {
        "type": "Point",
        "coordinates": [
          91.3494163,
          23.0901108
        ]
      }
    },
    {
      "type": "Feature",
      "properties": {
        "bridge_id": 1000350,
        "bridge_name": "FOEALTPARA BOX CULVERT",
        "condition": "B",
        "road": "N1"
      },
      "geometry": {
        "type": "Point",
        "coordinates": [
          91.3512101492753,
          23.0870753710144
        ]
      }
    },
    {
      "type": "Feature",
      "properties": {
        "bridge_id": 1000355,
        "bridge_name": "MOHAMMAD ALI MAZAR",
        "condition": "B",
        "road": "N1"
      },
      "geometry": {
        "type": "Point",
        "coordinates": [
          91.3594167,
          23.0732493
        ]
      }
    },
    {
      "type": "Feature",
      "properties": {
        "bridge_id": 1000360,
        "bridge_name": "FATAPUR BOX CULVERT",
        "condition": "A",
        "road": "N1"
      },
      "geometry": {
        "type": "Point",
        "coordinates": [
          91.3616667,
          23.0614722
        ]
      }
    },
    {
      "type": "Feature",
      "properties": {
        "bridge_id": 1000362,
        "bridge_name": "DEBIPUR SLAB CULVERT",
        "condition": "A",
        "road": "N1"
      },
      "geometry": {
        "type": "Point",
        "coordinates": [
          91.3651389,
          23.0479441
        ]
      }
    },
    {
      "type": "Feature",
      "properties": {
        "bridge_id": 1000367,
        "bridge_name": "CHARIPUR CULVERT.",
        "condition": "A",
        "road": "N1"
      },
      "geometry": {
        "type": "Point",
        "coordinates": [
          91.3656389,
          23.029416
        ]
      }
    },
    {
      "type": "Feature",
      "properties": {
        "bridge_id": 1000379,
        "bridge_name": "RAMPUR BRIDGE",
        "condition": "A",
        "road": "N1"
      },
      "geometry": {
        "type": "Point",
        "coordinates": [
          91.4022894900763,
          22.9947280792802
        ]
      }
    },
    {
      "type": "Feature",
      "properties": {
        "bridge_id": 1000380,
        "bridge_name": "Rampur Bridge(R)",
        "condition": "A",
        "road": "N1"
      },
      "geometry": {
        "type": "Point",
        "coordinates": [
          91.4024539137404,
          22.9945936133042
        ]
      }
    },
    {
      "type": "Feature",
      "properties": {
        "bridge_id": 1000381,
        "bridge_name": "bridge at id 1000381",
        "condition": "A",
        "road": "N1"
      },
      "geometry": {
        "type": "Point",
        "coordinates": [
          91.4047486961832,
          22.9927169359869
        ]
      }
    },
    {
      "type": "Feature",
      "properties": {
        "bridge_id": 1000391,
        "bridge_name": "LAMUA BRIDGE",
        "condition": "B",
        "road": "N1"
      },
      "geometry": {
        "type": "Point",
        "coordinates": [
          91.4429962027027,
          22.9614487369369
        ]
      }
    },
    {
      "type": "Feature",
      "properties": {
        "bridge_id": 1000398,
        "bridge_name": "FAZAILPUR BOXCULVERT",
        "condition": "A",
        "road": "N1"
      },
      "geometry": {
        "type": "Point",
        "coordinates": [
          91.4794993833333,
          22.9486038666666
        ]
      }
    },
    {
      "type": "Feature",
      "properties": {
        "bridge_id": 1000402,
        "bridge_name": "MUHURI BRIDGE",
        "condition": "B",
        "road": "N1"
      },
      "geometry": {
        "type": "Point",
        "coordinates": [
          91.502066899526,
          22.9496126090047
        ]
      }
    },
    {
      "type": "Feature",
      "properties": {
        "bridge_id": 1000411,
        "bridge_name": "DHOOM GHAT PC GIRDER",
        "condition": "B",
        "road": "N1"
      },
      "geometry": {
        "type": "Point",
        "coordinates": [
          91.5262895350877,
          22.9149647061403
        ]
      }
    },
    {
      "type": "Feature",
      "properties": {
        "bridge_id": 1000413,
        "bridge_name": "BUMGAT BOXCULVERT",
        "condition": "A",
        "road": "N1"
      },
      "geometry": {
        "type": "Point",
        "coordinates": [
          91.5289285034482,
          22.9097128884012
        ]
      }
    },
    {
      "type": "Feature",
      "properties": {
        "bridge_id": 1000415,
        "bridge_name": "BAROYARHAT BOX CULVERT",
        "condition": "A",
        "road": "N1"
      },
      "geometry": {
        "type": "Point",
        "coordinates": [
          91.5314438,
          22.9046667
        ]
      }
    },
    {
      "type": "Feature",
      "properties": {
        "bridge_id": 1000416,
        "bridge_name": "BOROYAR PARA SLUB CULVERT",
        "condition": "A",
        "road": "N1"
      },
      "geometry": {
        "type": "Point",
        "coordinates": [
          91.5316297776119,
          22.9042462955223
        ]
      }
    },
    {
      "type": "Feature",
      "properties": {
        "bridge_id": 1000424,
        "bridge_name": "MADDUM SONAPHAR-3",
        "condition": "A",
        "road": "N1"
      },
      "geometry": {
        "type": "Point",
        "coordinates": [
          91.5407219,
          22.875166
        ]
      }
    },
    {
      "type": "Feature",
      "properties": {
        "bridge_id": 1000425,
        "bridge_name": "UTTOR SONAPAR BOX CULVERT",
        "condition": "A",
        "road": "N1"
      },
      "geometry": {
        "type": "Point",
        "coordinates": [
          91.5408836647058,
          22.8746986941176
        ]
      }
    },
    {
      "type": "Feature",
      "properties": {
        "bridge_id": 1000427,
        "bridge_name": "MAMAFOUN ASTANA CULVERT",
        "condition": "A",
        "road": "N1"
      },
      "geometry": {
        "type": "Point",
        "coordinates": [
          91.5414441,
          22.8731382
        ]
      }
    },
    {
      "type": "Feature",
      "properties": {
        "bridge_id": 1000428,
        "bridge_name": "CHAIRMEN BARI BOX CULVERT",
        "condition": "A",
        "road": "N1"
      },
      "geometry": {
        "type": "Point",
        "coordinates": [
          91.5415958766187,
          22.872722034892
        ]
      }
    },
    {
      "type": "Feature",
      "properties": {
        "bridge_id": 1000429,
        "bridge_name": "MAMAFAKIR ASTANA SLAB CULVERT",
        "condition": "A",
        "road": "N1"
      },
      "geometry": {
        "type": "Point",
        "coordinates": [
          91.5431663,
          22.868416
        ]
      }
    },
    {
      "type": "Feature",
      "properties": {
        "bridge_id": 1000430,
        "bridge_name": "MADDAM SONAPAR(1) BOX CULVERT",
        "condition": "A",
        "road": "N1"
      },
      "geometry": {
        "type": "Point",
        "coordinates": [
          91.5432963340425,
          22.8680563702127
        ]
      }
    },
    {
      "type": "Feature",
      "properties": {
        "bridge_id": 1000432,
        "bridge_name": "MASTANNAGOR BONCUL(1)",
        "condition": "A",
        "road": "N1"
      },
      "geometry": {
        "type": "Point",
        "coordinates": [
          91.54512584501992,
          22.86111772310757
        ]
      }
    },
    {
      "type": "Feature",
      "properties": {
        "bridge_id": 1000433,
        "bridge_name": "DHARBAR TILA CULVERT",
        "condition": "A",
        "road": "N1"
      },
      "geometry": {
        "type": "Point",
        "coordinates": [
          91.5451551717131,
          22.8609876872509
        ]
      }
    },
    {
      "type": "Feature",
      "properties": {
        "bridge_id": 1000434,
        "bridge_name": "MUSTAU NOGAR(2)",
        "condition": "A",
        "road": "N1"
      },
      "geometry": {
        "type": "Point",
        "coordinates": [
          91.5454719,
          22.8595833
        ]
      }
    },
    {
      "type": "Feature",
      "properties": {
        "bridge_id": 1000436,
        "bridge_name": "MUSTAN NAGAR -4",
        "condition": "A",
        "road": "N1"
      },
      "geometry": {
        "type": "Point",
        "coordinates": [
          91.5457219,
          22.856
        ]
      }
    },
    {
      "type": "Feature",
      "properties": {
        "bridge_id": 1000437,
        "bridge_name": "RAIPUR BOX CUL-1",
        "condition": "A",
        "road": "N1"
      },
      "geometry": {
        "type": "Point",
        "coordinates": [
          91.545833,
          22.8550556
        ]
      }
    },
    {
      "type": "Feature",
      "properties": {
        "bridge_id": 1000439,
        "bridge_name": "RAIPUR (2) BOX CULVERT",
        "condition": "A",
        "road": "N1"
      },
      "geometry": {
        "type": "Point",
        "coordinates": [
          91.5463886,
          22.8485274
        ]
      }
    },
    {
      "type": "Feature",
      "properties": {
        "bridge_id": 1000440,
        "bridge_name": "PURPU DURGAPURE BOX CUL",
        "condition": "C",
        "road": "N1"
      },
      "geometry": {
        "type": "Point",
        "coordinates": [
          91.5464163,
          22.8484441
        ]
      }
    },
    {
      "type": "Feature",
      "properties": {
        "bridge_id": 1000442,
        "bridge_name": "MASTARI HAGOR 3 CULVERT",
        "condition": "A",
        "road": "N1"
      },
      "geometry": {
        "type": "Point",
        "coordinates": [
          91.54814955625,
          22.8434551375
        ]
      }
    },
    {
      "type": "Feature",
      "properties": {
        "bridge_id": 1000450,
        "bridge_name": "MUCHIPOOL CULVERT",
        "condition": "B",
        "road": "N1"
      },
      "geometry": {
        "type": "Point",
        "coordinates": [
          91.5562562129411,
          22.811563437647
        ]
      }
    },
    {
      "type": "Feature",
      "properties": {
        "bridge_id": 1000455,
        "bridge_name": "MIRSARAI BOX CUL",
        "condition": "A",
        "road": "N1"
      },
      "geometry": {
        "type": "Point",
        "coordinates": [
          91.5591111,
          22.8045833
        ]
      }
    },
    {
      "type": "Feature",
      "properties": {
        "bridge_id": 1000457,
        "bridge_name": "MIRAISORI BRIDGE",
        "condition": "B",
        "road": "N1"
      },
      "geometry": {
        "type": "Point",
        "coordinates": [
          91.5633333,
          22.7934163
        ]
      }
    },
    {
      "type": "Feature",
      "properties": {
        "bridge_id": 1000462,
        "bridge_name": "IANAINIPOL BOX CULVERT.",
        "condition": "A",
        "road": "N1"
      },
      "geometry": {
        "type": "Point",
        "coordinates": [
          91.5696382,
          22.7811382
        ]
      }
    },
    {
      "type": "Feature",
      "properties": {
        "bridge_id": 1000464,
        "bridge_name": "Mirsorai(2) box culvert",
        "condition": "A",
        "road": "N1"
      },
      "geometry": {
        "type": "Point",
        "coordinates": [
          91.5728737519999,
          22.774197092
        ]
      }
    },
    {
      "type": "Feature",
      "properties": {
        "bridge_id": 1000467,
        "bridge_name": "BOKIMTOLA BOX CULVERT",
        "condition": "A",
        "road": "N1"
      },
      "geometry": {
        "type": "Point",
        "coordinates": [
          91.5756104,
          22.7693604
        ]
      }
    },
    {
      "type": "Feature",
      "properties": {
        "bridge_id": 1000470,
        "bridge_name": "VARTAKA BOX CULVERT",
        "condition": "A",
        "road": "N1"
      },
      "geometry": {
        "type": "Point",
        "coordinates": [
          91.5811382,
          22.7621944
        ]
      }
    },
    {
      "type": "Feature",
      "properties": {
        "bridge_id": 1000472,
        "bridge_name": "VARTAGIA BOX CULVERT",
        "condition": "A",
        "road": "N1"
      },
      "geometry": {
        "type": "Point",
        "coordinates": [
          91.5893608,
          22.7526389
        ]
      }
    },
    {
      "type": "Feature",
      "properties": {
        "bridge_id": 1000473,
        "bridge_name": "BOTHAGIA (-3) BOX CULVERT",
        "condition": "B",
        "road": "N1"
      },
      "geometry": {
        "type": "Point",
        "coordinates": [
          91.5894719,
          22.7525
        ]
      }
    },
    {
      "type": "Feature",
      "properties": {
        "bridge_id": 1000479,
        "bridge_name": "NIAZAMPUR BOX CULVERT",
        "condition": "A",
        "road": "N1"
      },
      "geometry": {
        "type": "Point",
        "coordinates": [
          91.5979719,
          22.7349163
        ]
      }
    },
    {
      "type": "Feature",
      "properties": {
        "bridge_id": 1000481,
        "bridge_name": "MIRJAPUR BOX CULVERT",
        "condition": "A",
        "road": "N1"
      },
      "geometry": {
        "type": "Point",
        "coordinates": [
          91.6030833,
          22.7221104
        ]
      }
    },
    {
      "type": "Feature",
      "properties": {
        "bridge_id": 1000483,
        "bridge_name": "MIRZAPUR (2) BOX CULVERT",
        "condition": "A",
        "road": "N1"
      },
      "geometry": {
        "type": "Point",
        "coordinates": [
          91.6061084846153,
          22.7172707342307
        ]
      }
    },
    {
      "type": "Feature",
      "properties": {
        "bridge_id": 1000487,
        "bridge_name": "ISAMATI BOX CULVERT",
        "condition": "C",
        "road": "N1"
      },
      "geometry": {
        "type": "Point",
        "coordinates": [
          91.6082352218749,
          22.7138727382812
        ]
      }
    },
    {
      "type": "Feature",
      "properties": {
        "bridge_id": 1000488,
        "bridge_name": "DUKHIN UTHPAR BOX CULVERT",
        "condition": "A",
        "road": "N1"
      },
      "geometry": {
        "type": "Point",
        "coordinates": [
          91.6090556,
          22.7124167
        ]
      }
    },
    {
      "type": "Feature",
      "properties": {
        "bridge_id": 1000491,
        "bridge_name": "VANGGARPOL BOX CULVERT",
        "condition": "A",
        "road": "N1"
      },
      "geometry": {
        "type": "Point",
        "coordinates": [
          91.6126944,
          22.706
        ]
      }
    },
    {
      "type": "Feature",
      "properties": {
        "bridge_id": 1000495,
        "bridge_name": "BORO KAMALDA BOX CULVERT",
        "condition": "A",
        "road": "N1"
      },
      "geometry": {
        "type": "Point",
        "coordinates": [
          91.6198604,
          22.6919719
        ]
      }
    },
    {
      "type": "Feature",
      "properties": {
        "bridge_id": 1000497,
        "bridge_name": "TARAT BOX CULVERT",
        "condition": "A",
        "road": "N1"
      },
      "geometry": {
        "type": "Point",
        "coordinates": [
          91.6208327,
          22.689583
        ]
      }
    },
    {
      "type": "Feature",
      "properties": {
        "bridge_id": 1000500,
        "bridge_name": "Tarial Bazar Culvert",
        "condition": "A",
        "road": "N1"
      },
      "geometry": {
        "type": "Point",
        "coordinates": [
          91.6268327,
          22.6769438
        ]
      }
    },
    {
      "type": "Feature",
      "properties": {
        "bridge_id": 1000501,
        "bridge_name": "MIRJA PUR (3) BOX CULVERT",
        "condition": "A",
        "road": "N1"
      },
      "geometry": {
        "type": "Point",
        "coordinates": [
          91.6274438,
          22.6751382
        ]
      }
    },
    {
      "type": "Feature",
      "properties": {
        "bridge_id": 1000503,
        "bridge_name": "SATU DURUAR HAT BOX CULVERT",
        "condition": "A",
        "road": "N1"
      },
      "geometry": {
        "type": "Point",
        "coordinates": [
          91.6280827,
          22.6733049
        ]
      }
    },
    {
      "type": "Feature",
      "properties": {
        "bridge_id": 1000507,
        "bridge_name": "RONA SORA CULVERT",
        "condition": "A",
        "road": "N1"
      },
      "geometry": {
        "type": "Point",
        "coordinates": [
          91.6321382,
          22.6638333
        ]
      }
    },
    {
      "type": "Feature",
      "properties": {
        "bridge_id": 1000508,
        "bridge_name": "NUNA CHARA BOX CULVERT",
        "condition": "A",
        "road": "N1"
      },
      "geometry": {
        "type": "Point",
        "coordinates": [
          91.6347219,
          22.6596667
        ]
      }
    },
    {
      "type": "Feature",
      "properties": {
        "bridge_id": 1000513,
        "bridge_name": "KACHAI PATH BOX CULVERT",
        "condition": "A",
        "road": "N1"
      },
      "geometry": {
        "type": "Point",
        "coordinates": [
          91.6411108,
          22.6489997
        ]
      }
    },
    {
      "type": "Feature",
      "properties": {
        "bridge_id": 1000514,
        "bridge_name": "BOTTOL BOX CULVERT",
        "condition": "A",
        "road": "N1"
      },
      "geometry": {
        "type": "Point",
        "coordinates": [
          91.6419171170626,
          22.6474561112311
        ]
      }
    },
    {
      "type": "Feature",
      "properties": {
        "bridge_id": 1000515,
        "bridge_name": "KACHAI POTTI BOX CULVERT",
        "condition": "A",
        "road": "N1"
      },
      "geometry": {
        "type": "Point",
        "coordinates": [
          91.6430552,
          22.6452774
        ]
      }
    },
    {
      "type": "Feature",
      "properties": {
        "bridge_id": 1000517,
        "bridge_name": "EGOL PUR BOX CULVERT",
        "condition": "A",
        "road": "N1"
      },
      "geometry": {
        "type": "Point",
        "coordinates": [
          91.6494719,
          22.6338608
        ]
      }
    },
    {
      "type": "Feature",
      "properties": {
        "bridge_id": 1000519,
        "bridge_name": "SITAKUNDA SLAB",
        "condition": "A",
        "road": "N1"
      },
      "geometry": {
        "type": "Point",
        "coordinates": [
          91.6503889,
          22.6320271
        ]
      }
    },
    {
      "type": "Feature",
      "properties": {
        "bridge_id": 1000520,
        "bridge_name": "MOHADAB PUR BOX CULVERT",
        "condition": "A",
        "road": "N1"
      },
      "geometry": {
        "type": "Point",
        "coordinates": [
          91.6541389,
          22.625916
        ]
      }
    },
    {
      "type": "Feature",
      "properties": {
        "bridge_id": 1000521,
        "bridge_name": "UTTOR SITAKONDO BAZAR BOX CULVERT",
        "condition": "B",
        "road": "N1"
      },
      "geometry": {
        "type": "Point",
        "coordinates": [
          91.6541857554217,
          22.6258323373493
        ]
      }
    },
    {
      "type": "Feature",
      "properties": {
        "bridge_id": 1000523,
        "bridge_name": "DULAHAJRA(R)",
        "condition": "A",
        "road": "N1"
      },
      "geometry": {
        "type": "Point",
        "coordinates": [
          91.6553056,
          22.6234716
        ]
      }
    },
    {
      "type": "Feature",
      "properties": {
        "bridge_id": 1000529,
        "bridge_name": "MADICAL MORE CULVERT",
        "condition": "A",
        "road": "N1"
      },
      "geometry": {
        "type": "Point",
        "coordinates": [
          91.6588611,
          22.6168604
        ]
      }
    },
    {
      "type": "Feature",
      "properties": {
        "bridge_id": 1000532,
        "bridge_name": "DOKHIN MOHADEB PUR BOX CULVERT",
        "condition": "A",
        "road": "N1"
      },
      "geometry": {
        "type": "Point",
        "coordinates": [
          91.6641111,
          22.6088889
        ]
      }
    },
    {
      "type": "Feature",
      "properties": {
        "bridge_id": 1000533,
        "bridge_name": "KALIAVA BOX CULVERT",
        "condition": "B",
        "road": "N1"
      },
      "geometry": {
        "type": "Point",
        "coordinates": [
          91.6683367336134,
          22.6023506949579
        ]
      }
    },
    {
      "type": "Feature",
      "properties": {
        "bridge_id": 1000535,
        "bridge_name": "HATILOTA BOX CULVERT",
        "condition": "A",
        "road": "N1"
      },
      "geometry": {
        "type": "Point",
        "coordinates": [
          91.6692771,
          22.601
        ]
      }
    },
    {
      "type": "Feature",
      "properties": {
        "bridge_id": 1000538,
        "bridge_name": "SKM BOX CULVERT(1)",
        "condition": "B",
        "road": "N1"
      },
      "geometry": {
        "type": "Point",
        "coordinates": [
          91.671819207489,
          22.5971665766519
        ]
      }
    },
    {
      "type": "Feature",
      "properties": {
        "bridge_id": 1000541,
        "bridge_name": "BAROCONDO BRIDGE",
        "condition": "C",
        "road": "N1"
      },
      "geometry": {
        "type": "Point",
        "coordinates": [
          91.6754716,
          22.5907497
        ]
      }
    },
    {
      "type": "Feature",
      "properties": {
        "bridge_id": 1000543,
        "bridge_name": "BARO-CUNDHOW BOX CULVERT",
        "condition": "A",
        "road": "N1"
      },
      "geometry": {
        "type": "Point",
        "coordinates": [
          91.6784716,
          22.5836663
        ]
      }
    },
    {
      "type": "Feature",
      "properties": {
        "bridge_id": 1000545,
        "bridge_name": "BAROGINDO CULVERT",
        "condition": "A",
        "road": "N1"
      },
      "geometry": {
        "type": "Point",
        "coordinates": [
          91.6795390413994,
          22.5815086746355
        ]
      }
    },
    {
      "type": "Feature",
      "properties": {
        "bridge_id": 1000549,
        "bridge_name": "PHPMORE BON CULVERT",
        "condition": "A",
        "road": "N1"
      },
      "geometry": {
        "type": "Point",
        "coordinates": [
          91.6830827,
          22.5731938
        ]
      }
    },
    {
      "type": "Feature",
      "properties": {
        "bridge_id": 1000550,
        "bridge_name": "CHARA KANDI BOX CULVERT",
        "condition": "A",
        "road": "N1"
      },
      "geometry": {
        "type": "Point",
        "coordinates": [
          91.6831938,
          22.5730549
        ]
      }
    },
    {
      "type": "Feature",
      "properties": {
        "bridge_id": 1000552,
        "bridge_name": "OHIDPUR BOX CULVERT",
        "condition": "A",
        "road": "N1"
      },
      "geometry": {
        "type": "Point",
        "coordinates": [
          91.6851663,
          22.5664722
        ]
      }
    },
    {
      "type": "Feature",
      "properties": {
        "bridge_id": 1000553,
        "bridge_name": "R. R TEXTAIL BOX CULVERT",
        "condition": "A",
        "road": "N1"
      },
      "geometry": {
        "type": "Point",
        "coordinates": [
          91.6851826636363,
          22.5664212916363
        ]
      }
    },
    {
      "type": "Feature",
      "properties": {
        "bridge_id": 1000558,
        "bridge_name": "BARSH BARIA BRIDGE",
        "condition": "B",
        "road": "N1"
      },
      "geometry": {
        "type": "Point",
        "coordinates": [
          91.6887963149094,
          22.5543319776357
        ]
      }
    },
    {
      "type": "Feature",
      "properties": {
        "bridge_id": 1000560,
        "bridge_name": "SOUTH BALSH KHALI BOX CULVERT",
        "condition": "A",
        "road": "N1"
      },
      "geometry": {
        "type": "Point",
        "coordinates": [
          91.6902774,
          22.5503056
        ]
      }
    },
    {
      "type": "Feature",
      "properties": {
        "bridge_id": 1000561,
        "bridge_name": "DOKHIN BASH-KHALI BOX CULVERT",
        "condition": "A",
        "road": "N1"
      },
      "geometry": {
        "type": "Point",
        "coordinates": [
          91.6903886,
          22.5501667
        ]
      }
    },
    {
      "type": "Feature",
      "properties": {
        "bridge_id": 1000563,
        "bridge_name": "SOTTANA MONDIR CULVERT",
        "condition": "A",
        "road": "N1"
      },
      "geometry": {
        "type": "Point",
        "coordinates": [
          91.6950274,
          22.5428608
        ]
      }
    },
    {
      "type": "Feature",
      "properties": {
        "bridge_id": 1000565,
        "bridge_name": "GULAM JUTE MILE BOX CULVERT",
        "condition": "A",
        "road": "N1"
      },
      "geometry": {
        "type": "Point",
        "coordinates": [
          91.698333,
          22.5347774
        ]
      }
    },
    {
      "type": "Feature",
      "properties": {
        "bridge_id": 1000567,
        "bridge_name": "KYSTELGATE ARCH",
        "condition": "B",
        "road": "N1"
      },
      "geometry": {
        "type": "Point",
        "coordinates": [
          91.7038366163009,
          22.5229359167189
        ]
      }
    },
    {
      "type": "Feature",
      "properties": {
        "bridge_id": 1000571,
        "bridge_name": "BORO KUMIRA BRIDGE",
        "condition": "C",
        "road": "N1"
      },
      "geometry": {
        "type": "Point",
        "coordinates": [
          91.7065833,
          22.5165556
        ]
      }
    },
    {
      "type": "Feature",
      "properties": {
        "bridge_id": 1000577,
        "bridge_name": "ROYL CIMINT GATE CULVETRT",
        "condition": "A",
        "road": "N1"
      },
      "geometry": {
        "type": "Point",
        "coordinates": [
          91.7096389,
          22.5094444
        ]
      }
    },
    {
      "type": "Feature",
      "properties": {
        "bridge_id": 1000578,
        "bridge_name": "GORA MARA RCC GIRDER BRIDGE",
        "condition": "A",
        "road": "N1"
      },
      "geometry": {
        "type": "Point",
        "coordinates": [
          91.7096944,
          22.5093611
        ]
      }
    },
    {
      "type": "Feature",
      "properties": {
        "bridge_id": 1000583,
        "bridge_name": "GORA MARI BOX CULVERT",
        "condition": "B",
        "road": "N1"
      },
      "geometry": {
        "type": "Point",
        "coordinates": [
          91.7155556,
          22.4969163
        ]
      }
    },
    {
      "type": "Feature",
      "properties": {
        "bridge_id": 1000586,
        "bridge_name": "BARAOWLLA BOX CULVERT",
        "condition": "A",
        "road": "N1"
      },
      "geometry": {
        "type": "Point",
        "coordinates": [
          91.7192771,
          22.4869441
        ]
      }
    },
    {
      "type": "Feature",
      "properties": {
        "bridge_id": 1000588,
        "bridge_name": "HATIBORI BOX CULVERT",
        "condition": "A",
        "road": "N1"
      },
      "geometry": {
        "type": "Point",
        "coordinates": [
          91.72005100244988,
          22.48280706570156
        ]
      }
    },
    {
      "type": "Feature",
      "properties": {
        "bridge_id": 1000589,
        "bridge_name": "MUDDO SONAISORI BRIDGE",
        "condition": "B",
        "road": "N1"
      },
      "geometry": {
        "type": "Point",
        "coordinates": [
          91.7203633632516,
          22.4811642144766
        ]
      }
    },
    {
      "type": "Feature",
      "properties": {
        "bridge_id": 1000595,
        "bridge_name": "SHLAKHAR PAD BRIDGE",
        "condition": "B",
        "road": "N1"
      },
      "geometry": {
        "type": "Point",
        "coordinates": [
          91.7285307,
          22.4624386352
        ]
      }
    },
    {
      "type": "Feature",
      "properties": {
        "bridge_id": 1000597,
        "bridge_name": "KODOM RASUL BOX CULVERT",
        "condition": "A",
        "road": "N1"
      },
      "geometry": {
        "type": "Point",
        "coordinates": [
          91.7303604,
          22.4588333
        ]
      }
    },
    {
      "type": "Feature",
      "properties": {
        "bridge_id": 1000600,
        "bridge_name": "SALAKHARPAD BRIDGE",
        "condition": "C",
        "road": "N1"
      },
      "geometry": {
        "type": "Point",
        "coordinates": [
          91.7353674287057,
          22.4460793332411
        ]
      }
    },
    {
      "type": "Feature",
      "properties": {
        "bridge_id": 1000602,
        "bridge_name": "HASNA BAD BOX CULVERT",
        "condition": "A",
        "road": "N1"
      },
      "geometry": {
        "type": "Point",
        "coordinates": [
          91.7366663,
          22.4424997
        ]
      }
    },
    {
      "type": "Feature",
      "properties": {
        "bridge_id": 1000603,
        "bridge_name": "VATERIE BRIDGE",
        "condition": "A",
        "road": "N1"
      },
      "geometry": {
        "type": "Point",
        "coordinates": [
          91.7367497,
          22.4422219
        ]
      }
    },
    {
      "type": "Feature",
      "properties": {
        "bridge_id": 1000609,
        "bridge_name": "DHAMAKHALI BRIDGE",
        "condition": "B",
        "road": "N1"
      },
      "geometry": {
        "type": "Point",
        "coordinates": [
          91.7480209792,
          22.4220415536
        ]
      }
    },
    {
      "type": "Feature",
      "properties": {
        "bridge_id": 1000614,
        "bridge_name": "VATIARI CULVERT",
        "condition": "A",
        "road": "N1"
      },
      "geometry": {
        "type": "Point",
        "coordinates": [
          91.7544444,
          22.4101111
        ]
      }
    },
    {
      "type": "Feature",
      "properties": {
        "bridge_id": 1000618,
        "bridge_name": "T. B HOSPITAL GATE BOX CULVERT",
        "condition": "A",
        "road": "N1"
      },
      "geometry": {
        "type": "Point",
        "coordinates": [
          91.7573333,
          22.3996108
        ]
      }
    },
    {
      "type": "Feature",
      "properties": {
        "bridge_id": 1000619,
        "bridge_name": "GAMMON BRIDGE",
        "condition": "A",
        "road": "N1"
      },
      "geometry": {
        "type": "Point",
        "coordinates": [
          91.7576667,
          22.3988608
        ]
      }
    },
    {
      "type": "Feature",
      "properties": {
        "bridge_id": 1000622,
        "bridge_name": "PAKKA MATA BOX CULVERT",
        "condition": "A",
        "road": "N1"
      },
      "geometry": {
        "type": "Point",
        "coordinates": [
          91.7588056,
          22.3937774
        ]
      }
    },
    {
      "type": "Feature",
      "properties": {
        "bridge_id": 1000627,
        "bridge_name": "GLAXO BOX CULVERT",
        "condition": "A",
        "road": "N1"
      },
      "geometry": {
        "type": "Point",
        "coordinates": [
          91.7652222,
          22.3815271
        ]
      }
    },
    {
      "type": "Feature",
      "properties": {
        "bridge_id": 1000629,
        "bridge_name": "CORNAIL HAT BOX CULVERT",
        "condition": "A",
        "road": "N1"
      },
      "geometry": {
        "type": "Point",
        "coordinates": [
          91.770416,
          22.3764716
        ]
      }
    },
    {
      "type": "Feature",
      "properties": {
        "bridge_id": 1000634,
        "bridge_name": "SHIKALBAHA BOX CULVERT",
        "condition": "B",
        "road": "N1"
      },
      "geometry": {
        "type": "Point",
        "coordinates": [
          91.8511111,
          22.3644444
        ]
      }
    },
    {
      "type": "Feature",
      "properties": {
        "bridge_id": 1000636,
        "bridge_name": "ISLAMPUR CULVERT",
        "condition": "A",
        "road": "N1"
      },
      "geometry": {
        "type": "Point",
        "coordinates": [
          91.8514722,
          22.3632778
        ]
      }
    },
    {
      "type": "Feature",
      "properties": {
        "bridge_id": 1000637,
        "bridge_name": "BOALIA BOX CULVERT",
        "condition": "C",
        "road": "N1"
      },
      "geometry": {
        "type": "Point",
        "coordinates": [
          91.8522694918171,
          22.3599057425992
        ]
      }
    },
    {
      "type": "Feature",
      "properties": {
        "bridge_id": 1000639,
        "bridge_name": "SHIKALBAHA MORE",
        "condition": "A",
        "road": "N1"
      },
      "geometry": {
        "type": "Point",
        "coordinates": [
          91.8530833,
          22.3555
        ]
      }
    },
    {
      "type": "Feature",
      "properties": {
        "bridge_id": 1000640,
        "bridge_name": "SHIKALBAHA BOX CULVERT",
        "condition": "A",
        "road": "N1"
      },
      "geometry": {
        "type": "Point",
        "coordinates": [
          91.8530556,
          22.3553889
        ]
      }
    },
    {
      "type": "Feature",
      "properties": {
        "bridge_id": 1000641,
        "bridge_name": "BAKULIA BRIDGE",
        "condition": "B",
        "road": "N1"
      },
      "geometry": {
        "type": "Point",
        "coordinates": [
          91.852622049836,
          22.3522674714754
        ]
      }
    },
    {
      "type": "Feature",
      "properties": {
        "bridge_id": 1000643,
        "bridge_name": "SHIKALBAHA BRIDGE",
        "condition": "C",
        "road": "N1"
      },
      "geometry": {
        "type": "Point",
        "coordinates": [
          91.8531389,
          22.3427219
        ]
      }
    },
    {
      "type": "Feature",
      "properties": {
        "bridge_id": 1000645,
        "bridge_name": "HAFAS BAGAR BRIDGE",
        "condition": "B",
        "road": "N1"
      },
      "geometry": {
        "type": "Point",
        "coordinates": [
          91.8533871579852,
          22.3395393508599
        ]
      }
    },
    {
      "type": "Feature",
      "properties": {
        "bridge_id": 1000647,
        "bridge_name": "SHANTERHAT CULVERT",
        "condition": "B",
        "road": "N1"
      },
      "geometry": {
        "type": "Point",
        "coordinates": [
          91.853695585567,
          22.338362487628867
        ]
      }
    },
    {
      "type": "Feature",
      "properties": {
        "bridge_id": 1000651,
        "bridge_name": "RAZAKATI BRIDGE",
        "condition": "B",
        "road": "N1"
      },
      "geometry": {
        "type": "Point",
        "coordinates": [
          91.8538536927835,
          22.3357673216494
        ]
      }
    },
    {
      "type": "Feature",
      "properties": {
        "bridge_id": 1000652,
        "bridge_name": "RAJAKHALI RCC GIDER BRIDGE",
        "condition": "A",
        "road": "N1"
      },
      "geometry": {
        "type": "Point",
        "coordinates": [
          91.8533979043814,
          22.3349153368556
        ]
      }
    },
    {
      "type": "Feature",
      "properties": {
        "bridge_id": 1000654,
        "bridge_name": "SHANTERHAT BOX CULVERT",
        "condition": "B",
        "road": "N1"
      },
      "geometry": {
        "type": "Point",
        "coordinates": [
          91.8521111,
          22.3297493
        ]
      }
    },
    {
      "type": "Feature",
      "properties": {
        "bridge_id": 1000655,
        "bridge_name": "Hajrath Sha Amanath Satu",
        "condition": "C",
        "road": "N1"
      },
      "geometry": {
        "type": "Point",
        "coordinates": [
          91.852759390139,
          22.3266451369152
        ]
      }
    },
    {
      "type": "Feature",
      "properties": {
        "bridge_id": 1000657,
        "bridge_name": "KUSUMPUR BOX CULVERT",
        "condition": "A",
        "road": "N1"
      },
      "geometry": {
        "type": "Point",
        "coordinates": [
          91.8536111,
          22.3212771
        ]
      }
    },
    {
      "type": "Feature",
      "properties": {
        "bridge_id": 1000661,
        "bridge_name": "SHIKALBAHA BRIDGE",
        "condition": "C",
        "road": "N1"
      },
      "geometry": {
        "type": "Point",
        "coordinates": [
          91.856181916129,
          22.3129265129032
        ]
      }
    },
    {
      "type": "Feature",
      "properties": {
        "bridge_id": 1000662,
        "bridge_name": "tassi bazer(R)",
        "condition": "A",
        "road": "N1"
      },
      "geometry": {
        "type": "Point",
        "coordinates": [
          91.8570278,
          22.3108333
        ]
      }
    },
    {
      "type": "Feature",
      "properties": {
        "bridge_id": 1000666,
        "bridge_name": "SHIKALBAHA",
        "condition": "C",
        "road": "N1"
      },
      "geometry": {
        "type": "Point",
        "coordinates": [
          91.860449028,
          22.306457756
        ]
      }
    },
    {
      "type": "Feature",
      "properties": {
        "bridge_id": 1000667,
        "bridge_name": "MONSHA CULVERT",
        "condition": "A",
        "road": "N1"
      },
      "geometry": {
        "type": "Point",
        "coordinates": [
          91.8621667,
          22.3043056
        ]
      }
    },
    {
      "type": "Feature",
      "properties": {
        "bridge_id": 1000668,
        "bridge_name": "SOUTH MITTACHORI",
        "condition": "A",
        "road": "N1"
      },
      "geometry": {
        "type": "Point",
        "coordinates": [
          91.8635646970873,
          22.3026235524271
        ]
      }
    },
    {
      "type": "Feature",
      "properties": {
        "bridge_id": 1000671,
        "bridge_name": "KADUMTOLI CULVERT",
        "condition": "A",
        "road": "N1"
      },
      "geometry": {
        "type": "Point",
        "coordinates": [
          91.866363031514,
          22.2975350260563
        ]
      }
    },
    {
      "type": "Feature",
      "properties": {
        "bridge_id": 1000672,
        "bridge_name": "Pirol",
        "condition": "A",
        "road": "N1"
      },
      "geometry": {
        "type": "Point",
        "coordinates": [
          91.8671938,
          22.2950274
        ]
      }
    },
    {
      "type": "Feature",
      "properties": {
        "bridge_id": 1000675,
        "bridge_name": "NOLBILA CULVERT",
        "condition": "A",
        "road": "N1"
      },
      "geometry": {
        "type": "Point",
        "coordinates": [
          91.8702911411764,
          22.2916421411764
        ]
      }
    },
    {
      "type": "Feature",
      "properties": {
        "bridge_id": 1000680,
        "bridge_name": "UZIRPUR HIGH SCHOOL",
        "condition": "A",
        "road": "N1"
      },
      "geometry": {
        "type": "Point",
        "coordinates": [
          91.8781104,
          22.2951108
        ]
      }
    },
    {
      "type": "Feature",
      "properties": {
        "bridge_id": 1000685,
        "bridge_name": "PATIYA BRIDGE",
        "condition": "C",
        "road": "N1"
      },
      "geometry": {
        "type": "Point",
        "coordinates": [
          91.897333,
          22.3015833
        ]
      }
    },
    {
      "type": "Feature",
      "properties": {
        "bridge_id": 1000692,
        "bridge_name": "PALYA BUS STATION",
        "condition": "A",
        "road": "N1"
      },
      "geometry": {
        "type": "Point",
        "coordinates": [
          91.9188327,
          22.3124722
        ]
      }
    },
    {
      "type": "Feature",
      "properties": {
        "bridge_id": 1000695,
        "bridge_name": "UTTOR SONAPUR",
        "condition": "A",
        "road": "N1"
      },
      "geometry": {
        "type": "Point",
        "coordinates": [
          91.9243524131578,
          22.3157468089473
        ]
      }
    },
    {
      "type": "Feature",
      "properties": {
        "bridge_id": 1000697,
        "bridge_name": "SRIMI BRIDGE",
        "condition": "C",
        "road": "N1"
      },
      "geometry": {
        "type": "Point",
        "coordinates": [
          91.9322216,
          22.3137778
        ]
      }
    },
    {
      "type": "Feature",
      "properties": {
        "bridge_id": 1000703,
        "bridge_name": "MOJAFFARABAD",
        "condition": "A",
        "road": "N1"
      },
      "geometry": {
        "type": "Point",
        "coordinates": [
          91.9641667,
          22.3010278
        ]
      }
    },
    {
      "type": "Feature",
      "properties": {
        "bridge_id": 1000704,
        "bridge_name": "MOJAFFORABAD BOX CULVERT",
        "condition": "A",
        "road": "N1"
      },
      "geometry": {
        "type": "Point",
        "coordinates": [
          91.9646667,
          22.3009444
        ]
      }
    },
    {
      "type": "Feature",
      "properties": {
        "bridge_id": 1000707,
        "bridge_name": "MOJAFFORABAD",
        "condition": "A",
        "road": "N1"
      },
      "geometry": {
        "type": "Point",
        "coordinates": [
          91.9787493,
          22.2956941
        ]
      }
    },
    {
      "type": "Feature",
      "properties": {
        "bridge_id": 1000710,
        "bridge_name": "ROWSONAT CUL",
        "condition": "A",
        "road": "N1"
      },
      "geometry": {
        "type": "Point",
        "coordinates": [
          91.9821104,
          22.2933608
        ]
      }
    },
    {
      "type": "Feature",
      "properties": {
        "bridge_id": 1000711,
        "bridge_name": "KANCHANAGAR CUL",
        "condition": "A",
        "road": "N1"
      },
      "geometry": {
        "type": "Point",
        "coordinates": [
          91.9822493,
          22.292083
        ]
      }
    },
    {
      "type": "Feature",
      "properties": {
        "bridge_id": 1000714,
        "bridge_name": "KHANCHANAGAR BADAMTOLA",
        "condition": "B",
        "road": "N1"
      },
      "geometry": {
        "type": "Point",
        "coordinates": [
          91.9911108,
          22.286583
        ]
      }
    },
    {
      "type": "Feature",
      "properties": {
        "bridge_id": 1000716,
        "bridge_name": "NORTH JOARA PAKKAR DOKAN",
        "condition": "B",
        "road": "N1"
      },
      "geometry": {
        "type": "Point",
        "coordinates": [
          91.9916941,
          22.2862497
        ]
      }
    },
    {
      "type": "Feature",
      "properties": {
        "bridge_id": 1000718,
        "bridge_name": "GASBAREA BOX CULVERT",
        "condition": "A",
        "road": "N1"
      },
      "geometry": {
        "type": "Point",
        "coordinates": [
          91.9986663,
          22.2820549
        ]
      }
    },
    {
      "type": "Feature",
      "properties": {
        "bridge_id": 1000719,
        "bridge_name": "KOMOLMUNSHE HAT BOX CULVERT",
        "condition": "B",
        "road": "N1"
      },
      "geometry": {
        "type": "Point",
        "coordinates": [
          91.9995571696216,
          22.2811424692972
        ]
      }
    },
    {
      "type": "Feature",
      "properties": {
        "bridge_id": 1000721,
        "bridge_name": "GASBAREA COLLEGE BOX CULVERT",
        "condition": "A",
        "road": "N1"
      },
      "geometry": {
        "type": "Point",
        "coordinates": [
          92.0053056,
          22.2745827
        ]
      }
    },
    {
      "type": "Feature",
      "properties": {
        "bridge_id": 1000723,
        "bridge_name": "KHORNA CULVERT",
        "condition": "A",
        "road": "N1"
      },
      "geometry": {
        "type": "Point",
        "coordinates": [
          92.00559725,
          22.2710895749999
        ]
      }
    },
    {
      "type": "Feature",
      "properties": {
        "bridge_id": 1000725,
        "bridge_name": "MAZAR POINT BRIDGE",
        "condition": "C",
        "road": "N1"
      },
      "geometry": {
        "type": "Point",
        "coordinates": [
          92.0070556,
          22.2622222
        ]
      }
    },
    {
      "type": "Feature",
      "properties": {
        "bridge_id": 1000727,
        "bridge_name": "KHORNA BVS STATION",
        "condition": "C",
        "road": "N1"
      },
      "geometry": {
        "type": "Point",
        "coordinates": [
          92.0073035838709,
          22.2611613745967
        ]
      }
    },
    {
      "type": "Feature",
      "properties": {
        "bridge_id": 1000728,
        "bridge_name": "KHOLGHAR CUL",
        "condition": "B",
        "road": "N1"
      },
      "geometry": {
        "type": "Point",
        "coordinates": [
          92.0075556,
          22.2600833
        ]
      }
    },
    {
      "type": "Feature",
      "properties": {
        "bridge_id": 1000729,
        "bridge_name": "AJIMPUR CUL",
        "condition": "C",
        "road": "N1"
      },
      "geometry": {
        "type": "Point",
        "coordinates": [
          92.0081111238095,
          22.2590515857142
        ]
      }
    },
    {
      "type": "Feature",
      "properties": {
        "bridge_id": 1000739,
        "bridge_name": "NOYARHAT",
        "condition": "B",
        "road": "N1"
      },
      "geometry": {
        "type": "Point",
        "coordinates": [
          92.0245549,
          22.2327771
        ]
      }
    },
    {
      "type": "Feature",
      "properties": {
        "bridge_id": 1000750,
        "bridge_name": "SANGO BRIDGE DOMAJAR",
        "condition": "C",
        "road": "N1"
      },
      "geometry": {
        "type": "Point",
        "coordinates": [
          92.0356663,
          22.2084444
        ]
      }
    },
    {
      "type": "Feature",
      "properties": {
        "bridge_id": 1000759,
        "bridge_name": "NOYAKHALAR MUK",
        "condition": "A",
        "road": "N1"
      },
      "geometry": {
        "type": "Point",
        "coordinates": [
          92.0528611,
          22.1750827
        ]
      }
    },
    {
      "type": "Feature",
      "properties": {
        "bridge_id": 1000764,
        "bridge_name": "KARANERHAT CULVERT",
        "condition": "A",
        "road": "N1"
      },
      "geometry": {
        "type": "Point",
        "coordinates": [
          92.0686104,
          22.1580556
        ]
      }
    },
    {
      "type": "Feature",
      "properties": {
        "bridge_id": 1000766,
        "bridge_name": "KOACHIA(MADARBHI)",
        "condition": "A",
        "road": "N1"
      },
      "geometry": {
        "type": "Point",
        "coordinates": [
          92.0696938,
          22.1509722
        ]
      }
    },
    {
      "type": "Feature",
      "properties": {
        "bridge_id": 1000768,
        "bridge_name": "KATGOR CULVERT",
        "condition": "A",
        "road": "N1"
      },
      "geometry": {
        "type": "Point",
        "coordinates": [
          92.0696330718446,
          22.1498523145631
        ]
      }
    },
    {
      "type": "Feature",
      "properties": {
        "bridge_id": 1000771,
        "bridge_name": "MITADIGI",
        "condition": "A",
        "road": "N1"
      },
      "geometry": {
        "type": "Point",
        "coordinates": [
          92.0698882,
          22.1379163
        ]
      }
    },
    {
      "type": "Feature",
      "properties": {
        "bridge_id": 1000772,
        "bridge_name": "MOULOVER DOKAN",
        "condition": "A",
        "road": "N1"
      },
      "geometry": {
        "type": "Point",
        "coordinates": [
          92.0699301281437,
          22.1369522329341
        ]
      }
    },
    {
      "type": "Feature",
      "properties": {
        "bridge_id": 1000774,
        "bridge_name": "PATATR PULL CULVERT",
        "condition": "A",
        "road": "N1"
      },
      "geometry": {
        "type": "Point",
        "coordinates": [
          92.0701565366459,
          22.1325208428571
        ]
      }
    },
    {
      "type": "Feature",
      "properties": {
        "bridge_id": 1000778,
        "bridge_name": "PATANER PULL(BRIDGE)",
        "condition": "A",
        "road": "N1"
      },
      "geometry": {
        "type": "Point",
        "coordinates": [
          92.0706024714285,
          22.1299160285714
        ]
      }
    },
    {
      "type": "Feature",
      "properties": {
        "bridge_id": 1000782,
        "bridge_name": "RAJGHATA BRIDGE",
        "condition": "A",
        "road": "N1"
      },
      "geometry": {
        "type": "Point",
        "coordinates": [
          92.0716382,
          22.123666
        ]
      }
    },
    {
      "type": "Feature",
      "properties": {
        "bridge_id": 1000783,
        "bridge_name": "NOYAKHALARMUK",
        "condition": "A",
        "road": "N1"
      },
      "geometry": {
        "type": "Point",
        "coordinates": [
          92.071701048329,
          22.1230775989717
        ]
      }
    },
    {
      "type": "Feature",
      "properties": {
        "bridge_id": 1000785,
        "bridge_name": "NOYA KHALAR MUK (KARANIERHAT) BOX CULVERT",
        "condition": "A",
        "road": "N1"
      },
      "geometry": {
        "type": "Point",
        "coordinates": [
          92.0719705134775,
          22.1204875006655
        ]
      }
    },
    {
      "type": "Feature",
      "properties": {
        "bridge_id": 1000787,
        "bridge_name": "KARANERHAT CULVERT",
        "condition": "A",
        "road": "N1"
      },
      "geometry": {
        "type": "Point",
        "coordinates": [
          92.0726869042553,
          22.1133524851063
        ]
      }
    },
    {
      "type": "Feature",
      "properties": {
        "bridge_id": 1000788,
        "bridge_name": "NOYA PARA BOX CULVERT",
        "condition": "A",
        "road": "N1"
      },
      "geometry": {
        "type": "Point",
        "coordinates": [
          92.0726938,
          22.1133056
        ]
      }
    },
    {
      "type": "Feature",
      "properties": {
        "bridge_id": 1000790,
        "bridge_name": "PODUA BAZAR BOX CULVERT",
        "condition": "A",
        "road": "N1"
      },
      "geometry": {
        "type": "Point",
        "coordinates": [
          92.0740549,
          22.1021667
        ]
      }
    },
    {
      "type": "Feature",
      "properties": {
        "bridge_id": 1000792,
        "bridge_name": "PODUA BAZAR BOX CULVERT",
        "condition": "A",
        "road": "N1"
      },
      "geometry": {
        "type": "Point",
        "coordinates": [
          92.0750271,
          22.0977497
        ]
      }
    },
    {
      "type": "Feature",
      "properties": {
        "bridge_id": 1000794,
        "bridge_name": "BARO AWLIA(R)",
        "condition": "A",
        "road": "N1"
      },
      "geometry": {
        "type": "Point",
        "coordinates": [
          92.0798604,
          22.0942219
        ]
      }
    },
    {
      "type": "Feature",
      "properties": {
        "bridge_id": 1000797,
        "bridge_name": "AMIRABAD LOHAGOR BOX CULVERT",
        "condition": "A",
        "road": "N1"
      },
      "geometry": {
        "type": "Point",
        "coordinates": [
          92.0924997,
          22.0844441
        ]
      }
    },
    {
      "type": "Feature",
      "properties": {
        "bridge_id": 1000798,
        "bridge_name": "MITADIGI ACADEMY",
        "condition": "A",
        "road": "N1"
      },
      "geometry": {
        "type": "Point",
        "coordinates": [
          92.093196937799,
          22.0840668315789
        ]
      }
    },
    {
      "type": "Feature",
      "properties": {
        "bridge_id": 1000802,
        "bridge_name": "LOHAGORA L.S BOX CULVERT",
        "condition": "A",
        "road": "N1"
      },
      "geometry": {
        "type": "Point",
        "coordinates": [
          92.1038333,
          22.0699438
        ]
      }
    },
    {
      "type": "Feature",
      "properties": {
        "bridge_id": 1000805,
        "bridge_name": "THAKUR DIGI BOX CULVERT",
        "condition": "A",
        "road": "N1"
      },
      "geometry": {
        "type": "Point",
        "coordinates": [
          92.1055530035335,
          22.0679099558303
        ]
      }
    },
    {
      "type": "Feature",
      "properties": {
        "bridge_id": 1000806,
        "bridge_name": "DIGIRPARK BOX CULVERT",
        "condition": "A",
        "road": "N1"
      },
      "geometry": {
        "type": "Point",
        "coordinates": [
          92.107,
          22.0641667
        ]
      }
    },
    {
      "type": "Feature",
      "properties": {
        "bridge_id": 1000808,
        "bridge_name": "KHORIANAGAR BRIDGE",
        "condition": "A",
        "road": "N1"
      },
      "geometry": {
        "type": "Point",
        "coordinates": [
          92.1071061094736,
          22.0637567157894
        ]
      }
    },
    {
      "type": "Feature",
      "properties": {
        "bridge_id": 1000809,
        "bridge_name": "DIGIRPAR BOX CULVERT",
        "condition": "A",
        "road": "N1"
      },
      "geometry": {
        "type": "Point",
        "coordinates": [
          92.1078056,
          22.0605556
        ]
      }
    },
    {
      "type": "Feature",
      "properties": {
        "bridge_id": 1000811,
        "bridge_name": "ZADUNAGOR FILLING BOX CULVERT",
        "condition": "A",
        "road": "N1"
      },
      "geometry": {
        "type": "Point",
        "coordinates": [
          92.1090833,
          22.0568611
        ]
      }
    },
    {
      "type": "Feature",
      "properties": {
        "bridge_id": 1000812,
        "bridge_name": "PODUA NOYA PARA BOX CULVERT",
        "condition": "A",
        "road": "N1"
      },
      "geometry": {
        "type": "Point",
        "coordinates": [
          92.1090854592233,
          22.0565051155339
        ]
      }
    },
    {
      "type": "Feature",
      "properties": {
        "bridge_id": 1000813,
        "bridge_name": "ZADUNAPUR SHAPIR FILLING STATION -(2) BOX CULVERT",
        "condition": "A",
        "road": "N1"
      },
      "geometry": {
        "type": "Point",
        "coordinates": [
          92.1091111,
          22.0522778
        ]
      }
    },
    {
      "type": "Feature",
      "properties": {
        "bridge_id": 1000815,
        "bridge_name": "ZADUNAGOR BUS STATION BOX CULVERT",
        "condition": "A",
        "road": "N1"
      },
      "geometry": {
        "type": "Point",
        "coordinates": [
          92.1082222,
          22.0486386
        ]
      }
    },
    {
      "type": "Feature",
      "properties": {
        "bridge_id": 1000816,
        "bridge_name": "Aadunagor bridge",
        "condition": "A",
        "road": "N1"
      },
      "geometry": {
        "type": "Point",
        "coordinates": [
          92.1078333,
          22.0449719
        ]
      }
    },
    {
      "type": "Feature",
      "properties": {
        "bridge_id": 1000819,
        "bridge_name": "HATIAR PULL PC GIDER BRIDGE",
        "condition": "A",
        "road": "N1"
      },
      "geometry": {
        "type": "Point",
        "coordinates": [
          92.104,
          22.0379163
        ]
      }
    },
    {
      "type": "Feature",
      "properties": {
        "bridge_id": 1000820,
        "bridge_name": "TALOCKDNR PARA BOX CULVERT",
        "condition": "A",
        "road": "N1"
      },
      "geometry": {
        "type": "Point",
        "coordinates": [
          92.1039891092783,
          22.0375898525773
        ]
      }
    },
    {
      "type": "Feature",
      "properties": {
        "bridge_id": 1000822,
        "bridge_name": "MUSKAMPANI PARA BOX CULVERT",
        "condition": "A",
        "road": "N1"
      },
      "geometry": {
        "type": "Point",
        "coordinates": [
          92.1041667,
          22.0320827
        ]
      }
    },
    {
      "type": "Feature",
      "properties": {
        "bridge_id": 1000823,
        "bridge_name": "AMIRABAD BOX CULVERT",
        "condition": "A",
        "road": "N1"
      },
      "geometry": {
        "type": "Point",
        "coordinates": [
          92.1041246666666,
          22.031864884656
        ]
      }
    },
    {
      "type": "Feature",
      "properties": {
        "bridge_id": 1000825,
        "bridge_name": "AMIRABAD PC GIDER BRIDGE",
        "condition": "A",
        "road": "N1"
      },
      "geometry": {
        "type": "Point",
        "coordinates": [
          92.1034293272727,
          22.0287013636363
        ]
      }
    },
    {
      "type": "Feature",
      "properties": {
        "bridge_id": 1000829,
        "bridge_name": "RATAR KUL- SONTI BRIDGE",
        "condition": "A",
        "road": "N1"
      },
      "geometry": {
        "type": "Point",
        "coordinates": [
          92.1015,
          22.0205549
        ]
      }
    },
    {
      "type": "Feature",
      "properties": {
        "bridge_id": 1000830,
        "bridge_name": "AMIRABAD LOHAGORA BOX CULVERT",
        "condition": "A",
        "road": "N1"
      },
      "geometry": {
        "type": "Point",
        "coordinates": [
          92.1014277681473,
          22.0204980278439
        ]
      }
    },
    {
      "type": "Feature",
      "properties": {
        "bridge_id": 1000832,
        "bridge_name": "BON PUKUL PARA BOX CULVERT",
        "condition": "A",
        "road": "N1"
      },
      "geometry": {
        "type": "Point",
        "coordinates": [
          92.0927497,
          22.0077222
        ]
      }
    },
    {
      "type": "Feature",
      "properties": {
        "bridge_id": 1000834,
        "bridge_name": "SANTI BOX CULVERT",
        "condition": "A",
        "road": "N1"
      },
      "geometry": {
        "type": "Point",
        "coordinates": [
          92.0904163,
          22.0039167
        ]
      }
    },
    {
      "type": "Feature",
      "properties": {
        "bridge_id": 1000837,
        "bridge_name": "BRICK FIELD BOX CULVERT",
        "condition": "A",
        "road": "N1"
      },
      "geometry": {
        "type": "Point",
        "coordinates": [
          92.0873608,
          21.9951108
        ]
      }
    },
    {
      "type": "Feature",
      "properties": {
        "bridge_id": 1000838,
        "bridge_name": "BACK FILD BOX CULVERT",
        "condition": "A",
        "road": "N1"
      },
      "geometry": {
        "type": "Point",
        "coordinates": [
          92.0872774,
          21.9950552
        ]
      }
    },
    {
      "type": "Feature",
      "properties": {
        "bridge_id": 1000839,
        "bridge_name": "KHASMOHAL ADUNAICR PC GIDER BRIDGE",
        "condition": "A",
        "road": "N1"
      },
      "geometry": {
        "type": "Point",
        "coordinates": [
          92.0863582073732,
          21.9922334387096
        ]
      }
    },
    {
      "type": "Feature",
      "properties": {
        "bridge_id": 1000843,
        "bridge_name": "AZIZNAGOR FOREST BOX CULVERT",
        "condition": "A",
        "road": "N1"
      },
      "geometry": {
        "type": "Point",
        "coordinates": [
          92.085333,
          21.9893886
        ]
      }
    },
    {
      "type": "Feature",
      "properties": {
        "bridge_id": 1000844,
        "bridge_name": "AZIZ NOGOR FOREST BOX CULVERT",
        "condition": "A",
        "road": "N1"
      },
      "geometry": {
        "type": "Point",
        "coordinates": [
          92.0835274,
          21.9862219
        ]
      }
    },
    {
      "type": "Feature",
      "properties": {
        "bridge_id": 1000847,
        "bridge_name": "AZIZNAGOR BOX CULVERT",
        "condition": "A",
        "road": "N1"
      },
      "geometry": {
        "type": "Point",
        "coordinates": [
          92.0800271,
          21.9811104
        ]
      }
    },
    {
      "type": "Feature",
      "properties": {
        "bridge_id": 1000848,
        "bridge_name": "AZIZ NOGAR BOX CULVERT",
        "condition": "A",
        "road": "N1"
      },
      "geometry": {
        "type": "Point",
        "coordinates": [
          92.0799438,
          21.9810549
        ]
      }
    },
    {
      "type": "Feature",
      "properties": {
        "bridge_id": 1000849,
        "bridge_name": "HATIAR PULL BOX CULVERT",
        "condition": "A",
        "road": "N1"
      },
      "geometry": {
        "type": "Point",
        "coordinates": [
          92.0788716271653,
          21.9804623633858
        ]
      }
    },
    {
      "type": "Feature",
      "properties": {
        "bridge_id": 1000851,
        "bridge_name": "SHIX DAR PARA BOX CULVERT",
        "condition": "A",
        "road": "N1"
      },
      "geometry": {
        "type": "Point",
        "coordinates": [
          92.0758492263157,
          21.979298574269
        ]
      }
    },
    {
      "type": "Feature",
      "properties": {
        "bridge_id": 1000856,
        "bridge_name": "AODU NAGOR (2) BOX CULVERT",
        "condition": "A",
        "road": "N1"
      },
      "geometry": {
        "type": "Point",
        "coordinates": [
          92.0641501117021,
          21.9689581196808
        ]
      }
    },
    {
      "type": "Feature",
      "properties": {
        "bridge_id": 1000860,
        "bridge_name": "HARBHANG CHOR",
        "condition": "A",
        "road": "N1"
      },
      "geometry": {
        "type": "Point",
        "coordinates": [
          92.0634444,
          21.9618611
        ]
      }
    },
    {
      "type": "Feature",
      "properties": {
        "bridge_id": 1000861,
        "bridge_name": "BONPUKR PARA BOX CULVERT",
        "condition": "A",
        "road": "N1"
      },
      "geometry": {
        "type": "Point",
        "coordinates": [
          92.0652791298387,
          21.9592401112903
        ]
      }
    },
    {
      "type": "Feature",
      "properties": {
        "bridge_id": 1000864,
        "bridge_name": "GHOIL MARA BOX CULVERT",
        "condition": "A",
        "road": "N1"
      },
      "geometry": {
        "type": "Point",
        "coordinates": [
          92.0673327,
          21.9569167
        ]
      }
    },
    {
      "type": "Feature",
      "properties": {
        "bridge_id": 1000865,
        "bridge_name": "SANTI RCC GIDER BRIDGE",
        "condition": "A",
        "road": "N1"
      },
      "geometry": {
        "type": "Point",
        "coordinates": [
          92.0678138084453,
          21.9520795406909
        ]
      }
    },
    {
      "type": "Feature",
      "properties": {
        "bridge_id": 1000869,
        "bridge_name": "HARBANG",
        "condition": "A",
        "road": "N1"
      },
      "geometry": {
        "type": "Point",
        "coordinates": [
          92.0668049,
          21.9446663
        ]
      }
    },
    {
      "type": "Feature",
      "properties": {
        "bridge_id": 1000871,
        "bridge_name": "HARBANG",
        "condition": "A",
        "road": "N1"
      },